City_ID,City,Country,Date,Lat,Lng,Max Temp,Humidity,Cloudiness,Wind Speed,Current Description
0,Yellowknife,CA,2021-09-27 00:20:03,62.456,-114.3525,45.41,71,40,3.0,scattered clouds
1,Atuona,PF,2021-09-27 00:20:54,-9.8,-139.0333,78.15,72,10,17.43,clear sky
2,Nago,JP,2021-09-27 00:24:10,26.5881,127.9761,86.07,80,69,12.01,broken clouds
3,Hermanus,ZA,2021-09-27 00:24:10,-34.4187,19.2345,58.89,89,87,6.17,overcast clouds
4,Ushuaia,AR,2021-09-27 00:24:11,-54.8,-68.3,40.66,60,0,8.05,clear sky
5,Cape Town,ZA,2021-09-27 00:23:33,-33.9258,18.4232,60.28,76,0,1.99,clear sky
6,Northam,GB,2021-09-27 00:24:11,51.0333,-4.2167,63.66,93,100,19.19,light rain
7,Cidreira,BR,2021-09-27 00:24:11,-30.1811,-50.2056,64.72,95,2,7.99,clear sky
8,San Patricio,US,2021-09-27 00:24:12,28.017,-97.5169,84.29,56,25,12.3,scattered clouds
9,Lucapa,AO,2021-09-27 00:24:12,-8.4192,20.7447,69.55,66,98,1.32,overcast clouds
10,Albany,US,2021-09-27 00:19:51,42.6001,-73.9662,59.31,79,4,1.01,clear sky
11,Hovd,MN,2021-09-27 00:24:12,48.0056,91.6419,37.06,37,12,3.13,few clouds
12,Port Blair,IN,2021-09-27 00:24:13,11.6667,92.75,77.04,94,40,2.3,mist
13,Kodiak,US,2021-09-27 00:19:52,57.79,-152.4072,47.26,56,5,12.41,clear sky
14,Saint Anthony,US,2021-09-27 00:24:13,45.0205,-93.218,78.04,66,1,0.0,clear sky
15,Mataram,ID,2021-09-27 00:24:14,-8.5833,116.1167,85.01,70,92,11.3,overcast clouds
16,Devrek,TR,2021-09-27 00:24:14,41.2192,31.9558,55.69,79,0,3.51,clear sky
17,Mataura,NZ,2021-09-27 00:24:15,-46.1927,168.8643,48.47,37,4,2.46,clear sky
18,Tuktoyaktuk,CA,2021-09-27 00:24:15,69.4541,-133.0374,33.8,86,75,13.8,light rain
19,Vaini,TO,2021-09-27 00:24:16,-21.2,-175.2,77.16,73,75,6.91,broken clouds
20,Sibolga,ID,2021-09-27 00:24:16,1.7427,98.7792,75.07,94,100,1.19,moderate rain
21,Novobirilyussy,RU,2021-09-27 00:24:16,56.9514,90.6661,28.13,96,37,3.85,scattered clouds
22,Gibara,CU,2021-09-27 00:24:17,21.1097,-76.1317,83.52,74,12,9.13,few clouds
23,Busselton,AU,2021-09-27 00:24:17,-33.65,115.3333,59.04,85,79,13.82,broken clouds
24,San Quintin,MX,2021-09-27 00:24:18,30.4833,-115.95,69.64,71,0,13.04,clear sky
25,Leh,IN,2021-09-27 00:24:18,34.1667,77.5833,52.07,32,0,3.56,clear sky
26,Punta Arenas,CL,2021-09-27 00:23:18,-53.15,-70.9167,41.11,75,0,10.36,clear sky
27,Totness,SR,2021-09-27 00:24:18,5.8833,-56.3167,78.89,87,35,8.93,scattered clouds
28,Rikitea,PF,2021-09-27 00:23:28,-23.1203,-134.9692,73.78,73,5,19.66,clear sky
29,Lebu,CL,2021-09-27 00:24:19,-37.6167,-73.65,49.05,71,15,21.23,few clouds
30,Pevek,RU,2021-09-27 00:24:19,69.7008,170.3133,30.72,95,100,21.97,snow
31,Ponta Do Sol,PT,2021-09-27 00:24:19,32.6667,-17.1,70.43,71,46,3.85,scattered clouds
32,Aitape,PG,2021-09-27 00:24:20,-3.1374,142.3475,84.47,69,100,3.09,overcast clouds
33,Avarua,CK,2021-09-27 00:24:20,-21.2078,-159.775,78.85,69,40,4.61,scattered clouds
34,Arman,RU,2021-09-27 00:24:20,59.7,150.1667,44.11,49,6,4.81,clear sky
35,Iqaluit,CA,2021-09-27 00:24:21,63.7506,-68.5145,35.33,87,90,15.99,overcast clouds
36,Saskylakh,RU,2021-09-27 00:24:21,71.9167,114.0833,34.72,99,100,11.23,overcast clouds
37,Birjand,IR,2021-09-27 00:24:21,32.8663,59.2211,59.47,36,0,4.61,clear sky
38,Atlantic City,US,2021-09-27 00:24:22,39.3643,-74.4229,69.98,65,1,0.0,clear sky
39,Nieves,PH,2021-09-27 00:24:22,15.3274,120.9485,81.45,81,45,0.74,scattered clouds
40,Husavik,IS,2021-09-27 00:24:22,66.0449,-17.3389,33.71,98,100,34.49,snow
41,Aklavik,CA,2021-09-27 00:24:23,68.2191,-135.0107,32.83,86,93,3.09,overcast clouds
42,Vilhena,BR,2021-09-27 00:21:52,-12.7406,-60.1458,73.17,73,83,2.93,broken clouds
43,Tasiilaq,GL,2021-09-27 00:24:23,65.6145,-37.6368,33.96,71,50,4.05,scattered clouds
44,New Norfolk,AU,2021-09-27 00:24:23,-42.7826,147.0587,54.72,53,31,5.01,scattered clouds
45,Bageshwar,IN,2021-09-27 00:24:24,29.85,79.7667,64.69,88,0,2.95,clear sky
46,Digby,CA,2021-09-27 00:24:24,44.6169,-65.7655,61.75,98,100,8.99,overcast clouds
47,Luderitz,NA,2021-09-27 00:24:24,-26.6481,15.1594,57.67,94,86,15.3,overcast clouds
48,Bilibino,RU,2021-09-27 00:24:25,68.0546,166.4372,29.86,97,100,13.29,snow
49,Dingle,PH,2021-09-27 00:24:25,10.9995,122.6711,80.94,85,77,5.1,broken clouds
50,Mar Del Plata,AR,2021-09-27 00:24:25,-38.0023,-57.5575,54.09,65,90,1.99,overcast clouds
51,Daokou,CN,2021-09-27 00:24:25,35.5639,114.5058,64.36,94,100,8.88,light rain
52,Abu Dhabi,AE,2021-09-27 00:24:26,24.4667,54.3667,89.62,48,100,8.05,overcast clouds
53,Turukhansk,RU,2021-09-27 00:21:16,65.8167,87.9833,33.06,85,34,6.2,scattered clouds
54,Guane,CU,2021-09-27 00:24:26,22.2025,-84.0875,79.14,81,36,3.27,scattered clouds
55,Kapaa,US,2021-09-27 00:24:27,22.0752,-159.319,84.52,73,40,4.0,light rain
56,Saint-Philippe,RE,2021-09-27 00:24:27,-21.3585,55.7679,69.35,87,61,16.4,light rain
57,Vao,NC,2021-09-27 00:24:27,-22.6667,167.4833,68.38,64,96,5.23,overcast clouds
58,Nabire,ID,2021-09-27 00:24:28,-3.3667,135.4833,83.17,73,95,0.51,overcast clouds
59,Butaritari,KI,2021-09-27 00:24:28,3.0707,172.7902,83.89,74,100,15.01,light rain
60,East London,ZA,2021-09-27 00:23:14,-33.0153,27.9116,65.35,86,29,16.4,scattered clouds
61,Ukiah,US,2021-09-27 00:24:28,39.1502,-123.2078,81.45,44,1,4.61,clear sky
62,Thompson,CA,2021-09-27 00:24:29,55.7435,-97.8558,59.16,63,40,0.0,scattered clouds
63,Dukat,RU,2021-09-27 00:24:29,62.55,155.55,27.37,74,98,3.69,overcast clouds
64,Olafsvik,IS,2021-09-27 00:24:29,64.8945,-23.7142,39.83,74,100,38.77,overcast clouds
65,Mamallapuram,IN,2021-09-27 00:24:30,12.6264,80.1722,82.45,73,100,16.26,overcast clouds
66,Dombarovskiy,RU,2021-09-27 00:24:30,50.7587,59.5386,45.97,43,69,7.83,broken clouds
67,Hobart,AU,2021-09-27 00:20:18,-42.8794,147.3294,54.1,59,20,4.0,few clouds
68,Bredasdorp,ZA,2021-09-27 00:24:30,-34.5322,20.0403,58.32,88,54,5.75,broken clouds
69,Bluff,NZ,2021-09-27 00:24:31,-46.6,168.3333,48.79,53,40,5.73,scattered clouds
70,Torbay,CA,2021-09-27 00:24:31,47.6666,-52.7314,54.68,91,75,11.5,broken clouds
71,Victoria,HK,2021-09-27 00:24:31,22.2855,114.1577,85.32,81,24,1.01,few clouds
72,Arraial Do Cabo,BR,2021-09-27 00:24:32,-22.9661,-42.0278,71.26,85,82,23.94,broken clouds
73,Sinnamary,GF,2021-09-27 00:24:32,5.3833,-52.95,80.64,82,7,11.79,clear sky
74,Klaksvik,FO,2021-09-27 00:24:33,62.2266,-6.589,50.92,84,100,19.01,overcast clouds
75,Scarborough,GB,2021-09-27 00:24:08,54.2797,-0.4044,62.83,81,70,4.0,broken clouds
76,Qaanaaq,GL,2021-09-27 00:24:33,77.484,-69.3632,19.22,60,19,8.59,few clouds
77,Provideniya,RU,2021-09-27 00:24:33,64.3833,-173.3,39.31,60,20,11.18,few clouds
78,Port Alfred,ZA,2021-09-27 00:24:34,-33.5906,26.891,64.96,88,32,19.69,scattered clouds
79,Carnarvon,AU,2021-09-27 00:24:34,-24.8667,113.6333,64.47,68,75,10.36,broken clouds
80,Tocopilla,CL,2021-09-27 00:24:34,-22.092,-70.1979,62.53,72,26,6.24,scattered clouds
81,Faanui,PF,2021-09-27 00:24:35,-16.4833,-151.75,79.88,69,13,12.39,few clouds
82,Sergeyevka,KZ,2021-09-27 00:24:35,53.88,67.4158,38.55,54,100,24.81,overcast clouds
83,Tyrma,RU,2021-09-27 00:24:35,50.0833,132.1667,54.03,75,100,5.99,light rain
84,Meulaboh,ID,2021-09-27 00:24:36,4.1363,96.1285,75.16,90,100,4.99,overcast clouds
85,Gao,ML,2021-09-27 00:22:24,16.6362,1.637,90.93,11,1,6.31,clear sky
86,Castro,BR,2021-09-27 00:24:36,-24.7911,-50.0119,64.49,68,34,3.11,scattered clouds
87,Sidi Ali,DZ,2021-09-27 00:24:36,36.0998,0.4206,70.05,72,85,2.44,overcast clouds
88,Pangnirtung,CA,2021-09-27 00:24:37,66.1451,-65.7125,32.29,77,17,1.88,few clouds
89,Felanitx,ES,2021-09-27 00:24:37,39.4696,3.1483,70.95,67,78,1.21,broken clouds
90,Esperance,AU,2021-09-27 00:24:37,-33.8667,121.9,57.04,89,77,13.22,broken clouds
91,Airai,TL,2021-09-27 00:24:38,-8.9266,125.4092,72.27,39,40,2.19,scattered clouds
92,Nikolskoye,RU,2021-09-27 00:24:38,59.7035,30.7861,49.89,98,48,4.56,scattered clouds
93,Hervey Bay,AU,2021-09-27 00:24:38,-25.2986,152.8535,72.01,65,86,21.05,overcast clouds
94,Mathathane,BW,2021-09-27 00:24:39,-22.2687,28.7495,66.67,32,0,9.48,clear sky
95,Padang,ID,2021-09-27 00:24:39,-0.9492,100.3543,75.25,90,100,2.71,overcast clouds
96,Cherskiy,RU,2021-09-27 00:24:39,68.75,161.3,32.56,100,100,16.35,snow
97,Glossop,GB,2021-09-27 00:24:40,53.4432,-1.949,63.12,81,96,13.76,overcast clouds
98,Hami,CN,2021-09-27 00:24:40,42.8,93.45,60.75,25,0,4.81,clear sky
99,Erzin,TR,2021-09-27 00:24:40,36.9559,36.2,67.01,30,15,2.62,few clouds
100,Ialibu,PG,2021-09-27 00:24:41,-6.2821,143.9935,65.03,75,78,2.98,broken clouds
101,Kisangani,CD,2021-09-27 00:24:41,0.5167,25.2,66.85,98,87,1.07,overcast clouds
102,Ngunguru,NZ,2021-09-27 00:24:41,-35.6167,174.5,60.17,64,100,9.98,overcast clouds
103,Santa Cruz De Tenerife,ES,2021-09-27 00:24:42,28.4682,-16.2546,78.46,71,0,6.91,clear sky
104,Kataysk,RU,2021-09-27 00:24:42,56.289,62.5841,37.99,66,100,17.74,overcast clouds
105,Moron,AR,2021-09-27 00:24:42,-34.6534,-58.6198,70.02,66,80,4.83,broken clouds
106,San Juan,AR,2021-09-27 00:20:05,-31.5375,-68.5364,64.67,24,0,7.65,clear sky
107,Saint-Georges,GD,2021-09-27 00:24:43,12.0564,-61.7485,80.28,83,20,0.0,few clouds
108,Dikson,RU,2021-09-27 00:24:43,73.5069,80.5464,35.71,86,83,22.62,broken clouds
109,Leningradskiy,RU,2021-09-27 00:24:43,69.3833,178.4167,28.38,77,98,7.29,overcast clouds
110,La Palma,US,2021-09-27 00:24:44,33.8464,-118.0467,80.96,72,75,5.01,broken clouds
111,Mogadishu,SO,2021-09-27 00:21:01,2.0371,45.3438,77.81,80,14,16.51,few clouds
112,Barrow,US,2021-09-27 00:21:03,71.2906,-156.7887,21.22,86,1,8.05,clear sky
113,Tam Ky,VN,2021-09-27 00:24:44,15.5667,108.4833,84.18,88,12,3.76,few clouds
114,Mapiri,BO,2021-09-27 00:24:44,-15.25,-68.1667,76.82,62,81,2.84,broken clouds
115,Khatanga,RU,2021-09-27 00:24:14,71.9667,102.5,27.16,95,77,9.1,broken clouds
116,Tadine,NC,2021-09-27 00:24:45,-21.55,167.8833,72.86,55,100,7.94,overcast clouds
117,Rocha,UY,2021-09-27 00:24:45,-34.4833,-54.3333,55.0,93,14,3.36,few clouds
118,Nisia Floresta,BR,2021-09-27 00:24:46,-6.0911,-35.2086,77.38,86,24,11.32,few clouds
119,Harper,LR,2021-09-27 00:24:46,4.375,-7.7169,75.6,87,100,3.33,overcast clouds
120,Lorengau,PG,2021-09-27 00:24:46,-2.0226,147.2712,82.33,79,98,8.41,overcast clouds
121,San Andres,CO,2021-09-27 00:24:47,12.5847,-81.7006,84.22,84,40,11.5,scattered clouds
122,Strezhevoy,RU,2021-09-27 00:24:47,60.7333,77.5889,28.38,93,6,6.78,clear sky
123,Aykhal,RU,2021-09-27 00:24:47,66.0,111.5,28.06,91,92,15.84,overcast clouds
124,Kedrovoye,RU,2021-09-27 00:24:47,57.1576,60.5698,40.44,71,100,11.14,overcast clouds
125,Scottsbluff,US,2021-09-27 00:24:48,41.8666,-103.6672,88.92,17,1,1.01,clear sky
126,Abu Samrah,SY,2021-09-27 00:24:48,35.3029,37.1841,69.46,31,51,2.59,broken clouds
127,Port Elizabeth,ZA,2021-09-27 00:24:49,-33.918,25.5701,62.89,94,20,11.5,few clouds
128,Bhatkal,IN,2021-09-27 00:24:49,13.9667,74.5667,77.76,85,100,2.86,overcast clouds
129,Labuhan,ID,2021-09-27 00:24:49,-6.8844,112.2051,78.48,79,24,7.2,few clouds
130,Siyabuswa,ZA,2021-09-27 00:24:49,-25.1132,29.0445,66.81,34,3,7.27,clear sky
131,Lata,PT,2021-09-27 00:24:50,40.1629,-8.3327,64.04,96,100,1.21,overcast clouds
132,Georgetown,MY,2021-09-27 00:20:16,5.4112,100.3354,76.95,96,20,2.3,few clouds
133,Qaqortoq,GL,2021-09-27 00:24:50,60.7167,-46.0333,34.3,59,1,3.65,clear sky
134,Upernavik,GL,2021-09-27 00:24:51,72.7868,-56.1549,23.95,64,0,3.78,clear sky
135,Tilichiki,RU,2021-09-27 00:24:51,60.4667,166.1,39.96,93,100,4.94,light rain
136,Maningrida,AU,2021-09-27 00:24:51,-12.0667,134.2667,84.72,58,53,6.64,broken clouds
137,Mujiayingzi,CN,2021-09-27 00:24:51,42.1167,118.7833,60.06,77,20,3.87,few clouds
138,Kaitangata,NZ,2021-09-27 00:24:52,-46.2817,169.8464,52.93,38,7,3.22,clear sky
139,Anlu,CN,2021-09-27 00:24:52,31.1661,112.5831,71.1,82,32,9.78,scattered clouds
140,Mezen,RU,2021-09-27 00:24:52,65.8522,44.24,44.62,97,100,0.78,overcast clouds
141,Caconda,AO,2021-09-27 00:24:53,-13.7333,15.0667,59.88,65,26,4.0,scattered clouds
142,Mahebourg,MU,2021-09-27 00:24:53,-20.4081,57.7,70.09,88,75,19.57,light rain
143,Bubaque,GW,2021-09-27 00:24:53,11.2833,-15.8333,83.53,80,100,11.43,overcast clouds
144,Talnakh,RU,2021-09-27 00:24:54,69.4865,88.3972,33.08,52,76,8.28,broken clouds
145,Kavieng,PG,2021-09-27 00:24:54,-2.5744,150.7967,82.85,76,95,9.75,light rain
146,Akersberga,SE,2021-09-27 00:24:54,59.4794,18.2997,51.28,87,72,5.86,broken clouds
147,Westport,US,2021-09-27 00:23:43,41.1415,-73.3579,69.98,67,1,1.99,clear sky
148,Bambous Virieux,MU,2021-09-27 00:24:55,-20.3428,57.7575,70.05,88,75,19.57,light rain
149,San Cristobal,VE,2021-09-27 00:24:55,7.7669,-72.225,78.98,86,83,3.38,broken clouds
150,Ternate,ID,2021-09-27 00:24:55,0.8,127.4,82.58,73,47,3.24,scattered clouds
151,Goundam,ML,2021-09-27 00:24:56,16.4145,-3.6708,94.21,15,62,6.35,broken clouds
152,Fortuna,US,2021-09-27 00:24:56,40.5982,-124.1573,75.42,63,1,4.0,clear sky
153,Bengkulu,ID,2021-09-27 00:24:57,-3.8004,102.2655,75.49,90,99,4.65,overcast clouds
154,Lallayug,PH,2021-09-27 00:24:57,17.7052,121.4398,81.37,82,26,1.72,scattered clouds
155,Kununurra,AU,2021-09-27 00:24:57,-15.7667,128.7333,85.98,51,74,3.44,broken clouds
156,Tromso,NO,2021-09-27 00:24:57,69.6496,18.957,57.85,82,90,5.01,overcast clouds
157,Paamiut,GL,2021-09-27 00:24:58,61.994,-49.6678,34.11,73,7,2.73,clear sky
158,Yakeshi,CN,2021-09-27 00:24:58,49.2833,120.7333,43.56,75,3,13.0,clear sky
159,Liku,ID,2021-09-27 00:24:58,-0.7275,119.8922,79.38,86,99,3.56,overcast clouds
160,Sitka,US,2021-09-27 00:24:59,57.0531,-135.33,55.29,54,90,0.0,overcast clouds
161,Muros,ES,2021-09-27 00:24:59,42.7762,-9.0603,67.23,83,95,19.46,overcast clouds
162,Obo,CF,2021-09-27 00:24:59,5.3998,26.4869,66.85,97,99,2.55,overcast clouds
163,Ballina,AU,2021-09-27 00:25:00,-28.8667,153.5667,62.78,82,90,4.61,overcast clouds
164,Severo-Kurilsk,RU,2021-09-27 00:25:00,50.6789,156.125,52.09,81,80,11.43,broken clouds
165,Saint-Pierre,RE,2021-09-27 00:25:00,-21.3393,55.4781,69.44,77,75,4.61,light rain
166,Marystown,CA,2021-09-27 00:25:01,47.1666,-55.1483,58.86,100,100,1.01,overcast clouds
167,Takoradi,GH,2021-09-27 00:25:01,4.8845,-1.7554,74.26,93,96,7.02,light rain
168,Kerikeri,NZ,2021-09-27 00:25:01,-35.2268,173.9474,59.92,63,99,5.01,light rain
169,Awbari,LY,2021-09-27 00:25:02,26.5921,12.7805,74.14,21,0,5.97,clear sky
170,Sur,OM,2021-09-27 00:25:03,22.5667,59.5289,82.65,68,6,10.45,clear sky
171,Sola,VU,2021-09-27 00:25:04,-13.8833,167.55,84.87,74,90,5.75,overcast clouds
172,Saint-Denis,FR,2021-09-27 00:25:04,48.9167,2.3333,62.38,94,0,1.01,clear sky
173,Ginir,ET,2021-09-27 00:25:04,7.1333,40.7,61.23,67,83,3.78,broken clouds
174,Poddorye,RU,2021-09-27 00:25:05,57.4695,31.1156,45.16,95,41,5.5,scattered clouds
175,Gueret,FR,2021-09-27 00:25:05,46.1667,1.8667,56.03,99,75,3.67,broken clouds
176,Sorland,NO,2021-09-27 00:25:06,67.667,12.6934,53.17,87,99,16.13,overcast clouds
177,Kachiry,KZ,2021-09-27 00:25:06,53.0675,76.1036,31.66,83,12,8.23,few clouds
178,Qandala,SO,2021-09-27 00:25:06,11.472,49.8728,86.52,55,2,2.26,clear sky
179,Clyde River,CA,2021-09-27 00:25:07,70.4692,-68.5914,26.24,86,33,7.63,scattered clouds
180,Bambamarca,PE,2021-09-27 00:25:07,-6.6833,-78.5333,53.74,93,71,4.14,broken clouds
181,Maniwaki,CA,2021-09-27 00:24:39,46.3834,-75.966,52.34,93,99,1.14,overcast clouds
182,Pinega,RU,2021-09-27 00:25:07,64.7001,43.3936,45.07,98,100,2.86,overcast clouds
183,Cumberland,US,2021-09-27 00:25:08,35.0502,-78.8664,69.58,64,1,0.0,clear sky
184,Sutton,GB,2021-09-27 00:21:09,51.35,-0.2,63.05,86,90,3.0,overcast clouds
185,Ambilobe,MG,2021-09-27 00:25:08,-13.2,49.05,67.75,73,6,3.24,clear sky
186,Vaxjo,SE,2021-09-27 00:25:08,56.8777,14.8091,53.65,94,90,6.91,overcast clouds
187,Partyzany,UA,2021-09-27 00:25:09,46.3314,34.7503,55.06,68,25,8.39,scattered clouds
188,Yellandu,IN,2021-09-27 00:25:09,17.6,80.3333,75.31,94,100,4.9,overcast clouds
189,Prado,BR,2021-09-27 00:25:09,-17.3411,-39.2208,73.56,77,77,11.01,broken clouds
190,Moctezuma,MX,2021-09-27 00:25:10,29.8,-109.6667,84.69,41,11,11.68,few clouds
191,Naze,JP,2021-09-27 00:25:10,28.3667,129.4833,83.32,78,15,15.41,few clouds
192,Luebo,CD,2021-09-27 00:25:10,-5.35,21.4167,71.35,87,99,1.54,light rain
193,Nome,US,2021-09-27 00:25:11,64.5011,-165.4064,36.16,69,90,12.66,overcast clouds
194,Buchanan,LR,2021-09-27 00:25:11,5.8808,-10.0467,75.07,95,100,6.26,moderate rain
195,Katherine,AU,2021-09-27 00:25:11,-14.4667,132.2667,86.32,54,77,10.36,broken clouds
196,Buraydah,SA,2021-09-27 00:22:19,26.326,43.975,77.45,33,14,7.47,few clouds
197,Salta,AR,2021-09-27 00:25:12,-24.7859,-65.4117,75.49,35,0,1.99,clear sky
198,Caorle,IT,2021-09-27 00:25:12,45.5966,12.8758,67.96,86,100,4.59,overcast clouds
199,Yabrud,SY,2021-09-27 00:25:12,33.9674,36.6574,61.52,32,21,4.79,few clouds
200,Dromolaxia,CY,2021-09-27 00:25:13,34.8761,33.586,73.67,45,0,4.61,clear sky
201,Conde,BR,2021-09-27 00:25:13,-7.2597,-34.9075,74.66,94,75,12.66,broken clouds
202,Taoudenni,ML,2021-09-27 00:25:13,22.6783,-3.9836,93.25,10,7,9.73,clear sky
203,Ilulissat,GL,2021-09-27 00:25:14,69.2167,-51.1,17.62,57,1,4.61,clear sky
204,Puerto Ayora,EC,2021-09-27 00:25:14,-0.7393,-90.3518,69.49,90,88,9.4,overcast clouds
205,Grand-Santi,GF,2021-09-27 00:25:14,4.25,-54.3833,72.75,92,78,1.95,broken clouds
206,Bethel,US,2021-09-27 00:25:15,41.3712,-73.414,65.91,76,1,5.75,clear sky
207,Portland,US,2021-09-27 00:25:14,45.5234,-122.6762,76.39,47,75,3.0,broken clouds
208,Nanortalik,GL,2021-09-27 00:25:15,60.1432,-45.2371,37.08,80,6,1.25,clear sky
209,Jamestown,US,2021-09-27 00:24:25,42.097,-79.2353,61.92,75,90,1.01,overcast clouds
210,Touros,BR,2021-09-27 00:25:15,-5.1989,-35.4608,76.1,81,15,16.26,few clouds
211,Saldanha,ZA,2021-09-27 00:25:16,-33.0117,17.9442,55.45,88,0,13.6,clear sky
212,Gat,IL,2021-09-27 00:25:16,31.61,34.7642,77.92,100,1,4.34,clear sky
213,Cloquet,US,2021-09-27 00:25:16,46.7216,-92.4594,67.98,70,1,3.44,clear sky
214,Vardo,NO,2021-09-27 00:25:17,70.3705,31.1107,47.68,86,100,23.53,overcast clouds
215,Turbo,CO,2021-09-27 00:25:17,8.0937,-76.7269,80.02,87,87,1.95,overcast clouds
216,Komsomolskiy,UZ,2021-09-27 00:25:17,40.4272,71.7189,65.12,29,0,6.91,clear sky
217,Williston,US,2021-09-27 00:25:18,48.147,-103.618,84.61,33,45,1.01,scattered clouds
218,Katsuura,JP,2021-09-27 00:21:58,35.1333,140.3,76.19,66,17,19.91,few clouds
219,Vallenar,CL,2021-09-27 00:25:18,-28.5708,-70.7581,71.24,34,0,4.09,clear sky
220,Chippewa Falls,US,2021-09-27 00:25:03,44.9369,-91.3929,72.97,76,1,5.75,clear sky
221,Kinablangan,PH,2021-09-27 00:25:19,7.6947,126.5503,82.58,73,96,1.92,overcast clouds
222,Charters Towers,AU,2021-09-27 00:25:19,-20.1,146.2667,78.91,40,7,11.36,clear sky
223,Lewistown,US,2021-09-27 00:25:19,40.5992,-77.5714,62.76,62,1,4.61,clear sky
224,Dudinka,RU,2021-09-27 00:25:20,69.4058,86.1778,30.63,60,28,7.16,scattered clouds
225,Luanda,AO,2021-09-27 00:25:20,-8.8368,13.2343,73.4,88,75,5.75,broken clouds
226,Balaghat,IN,2021-09-27 00:25:20,21.8,80.1833,73.83,93,93,5.66,overcast clouds
227,Sakakah,SA,2021-09-27 00:25:21,29.9697,40.2064,74.77,26,0,6.98,clear sky
228,Oyama,JP,2021-09-27 00:25:21,36.3,139.8,72.9,58,38,7.72,scattered clouds
229,Hilo,US,2021-09-27 00:25:21,19.7297,-155.09,82.13,84,90,13.8,light rain
230,Souillac,MU,2021-09-27 00:25:21,-20.5167,57.5167,70.18,88,75,19.57,light rain
231,Shache,CN,2021-09-27 00:25:22,38.4167,77.2406,62.28,26,0,2.91,clear sky
232,Carballo,ES,2021-09-27 00:25:22,43.213,-8.691,66.87,87,100,13.29,light rain
233,Ribeira Grande,PT,2021-09-27 00:25:22,38.5167,-28.7,68.38,73,91,23.6,overcast clouds
234,Kruisfontein,ZA,2021-09-27 00:25:23,-34.0033,24.7314,57.88,94,69,7.07,broken clouds
235,Birin,NP,2021-09-27 00:25:23,26.8865,88.0718,63.28,66,43,5.35,scattered clouds
236,Vila Franca Do Campo,PT,2021-09-27 00:25:24,37.7167,-25.4333,70.2,93,100,7.31,overcast clouds
237,Zverinogolovskoye,RU,2021-09-27 00:25:24,54.4586,64.8542,40.77,49,100,23.11,overcast clouds
238,Yar-Sale,RU,2021-09-27 00:25:24,66.8333,70.8333,32.0,85,1,6.91,clear sky
239,Skibbereen,IE,2021-09-27 00:25:24,51.55,-9.2667,53.4,73,100,8.23,overcast clouds
240,Tiksi,RU,2021-09-27 00:25:25,71.6872,128.8694,33.75,95,100,6.44,light rain
241,Chimbote,PE,2021-09-27 00:25:25,-9.0853,-78.5783,63.3,86,33,5.86,scattered clouds
242,Alexander City,US,2021-09-27 00:25:25,32.944,-85.9539,70.48,88,1,0.0,clear sky
243,Mollendo,PE,2021-09-27 00:25:26,-17.0231,-72.0147,60.78,78,62,3.51,broken clouds
244,Sisimiut,GL,2021-09-27 00:25:26,66.9395,-53.6735,26.37,53,0,7.67,clear sky
245,Chuy,UY,2021-09-27 00:25:26,-33.6971,-53.4616,57.63,93,2,5.57,clear sky
246,Pandegelang,ID,2021-09-27 00:25:27,-6.31,106.1058,82.65,85,72,1.88,broken clouds
247,Wanning,CN,2021-09-27 00:25:27,18.8003,110.3967,80.78,84,26,2.84,scattered clouds
248,Damghan,IR,2021-09-27 00:25:27,36.1683,54.348,56.16,54,0,1.45,clear sky
249,Yerbogachen,RU,2021-09-27 00:25:28,61.2767,108.0108,32.2,94,100,14.07,light snow
250,Brae,GB,2021-09-27 00:25:28,60.3964,-1.353,55.31,96,100,18.34,overcast clouds
251,Pochutla,MX,2021-09-27 00:25:28,15.7432,-96.4661,78.62,81,67,4.32,broken clouds
252,Camacha,PT,2021-09-27 00:25:29,33.0833,-16.3333,66.96,77,0,3.44,clear sky
253,Chapais,CA,2021-09-27 00:25:29,49.7834,-74.8492,49.78,89,99,4.12,overcast clouds
254,Hofn,IS,2021-09-27 00:25:29,64.2539,-15.2082,42.48,61,100,9.64,overcast clouds
255,Ostrovnoy,RU,2021-09-27 00:21:09,68.0531,39.5131,43.61,93,93,14.29,overcast clouds
256,Port-Gentil,GA,2021-09-27 00:25:30,-0.7193,8.7815,77.52,83,90,10.27,overcast clouds
257,Raudeberg,NO,2021-09-27 00:25:30,61.9875,5.1352,57.87,89,89,10.76,light rain
258,Los Llanos De Aridane,ES,2021-09-27 00:25:30,28.6585,-17.9182,71.35,73,90,9.22,overcast clouds
259,Flin Flon,CA,2021-09-27 00:25:31,54.7682,-101.865,57.27,60,48,3.98,scattered clouds
260,Ferme-Neuve,CA,2021-09-27 00:25:31,46.7001,-75.4493,47.98,70,85,4.68,overcast clouds
261,Oranjestad,AW,2021-09-27 00:25:31,12.524,-70.027,84.9,81,20,5.99,few clouds
262,Barranca,PE,2021-09-27 00:25:32,-10.75,-77.7667,61.47,85,32,5.44,scattered clouds
263,Zhezkazgan,KZ,2021-09-27 00:25:32,47.8043,67.7144,59.52,23,100,8.55,light rain
264,Idil,TR,2021-09-27 00:25:32,37.3411,41.8895,65.97,21,0,6.6,clear sky
265,Atar,MR,2021-09-27 00:25:32,20.5169,-13.0499,94.96,14,4,4.5,clear sky
266,Thinadhoo,MV,2021-09-27 00:25:33,0.5333,72.9333,81.68,76,100,16.75,light rain
267,Srednekolymsk,RU,2021-09-27 00:25:33,67.45,153.6833,33.67,97,100,17.25,light rain
268,Cockburn Town,TC,2021-09-27 00:25:33,21.4612,-71.1419,83.52,72,1,9.08,clear sky
269,Tura,IN,2021-09-27 00:25:34,25.5198,90.2201,75.72,84,69,2.98,broken clouds
270,Bathsheba,BB,2021-09-27 00:25:34,13.2167,-59.5167,81.21,89,40,12.66,scattered clouds
271,Itarema,BR,2021-09-27 00:25:34,-2.9248,-39.9167,78.91,82,48,17.65,scattered clouds
272,Richards Bay,ZA,2021-09-27 00:25:35,-28.783,32.0377,63.59,93,53,3.94,broken clouds
273,Bonthe,SL,2021-09-27 00:25:35,7.5264,-12.505,77.09,88,100,4.68,light rain
274,Poninka,UA,2021-09-27 00:25:35,50.1849,27.5363,46.99,89,96,4.65,overcast clouds
275,Jalu,LY,2021-09-27 00:25:36,29.0331,21.5482,70.21,64,0,8.84,clear sky
276,Kysyl-Syr,RU,2021-09-27 00:25:36,63.8986,122.7617,33.03,80,99,8.55,overcast clouds
277,Bonavista,CA,2021-09-27 00:25:36,48.6499,-53.1147,52.12,87,86,12.28,overcast clouds
278,Vila Velha,BR,2021-09-27 00:25:36,-20.3297,-40.2925,73.35,78,75,8.05,broken clouds
279,Berlevag,NO,2021-09-27 00:25:37,70.8578,29.0864,47.59,86,100,14.74,overcast clouds
280,Yershichi,RU,2021-09-27 00:25:37,53.6725,32.7542,46.54,84,57,7.78,broken clouds
281,Acarau,BR,2021-09-27 00:25:37,-2.8856,-40.12,78.96,82,63,18.86,broken clouds
282,Wau,SS,2021-09-27 00:25:38,7.7029,27.9953,69.55,94,18,2.66,few clouds
283,Shemonaikha,KZ,2021-09-27 00:25:38,50.6328,81.9056,25.29,88,6,6.15,clear sky
284,Dongsheng,CN,2021-09-27 00:25:38,39.8161,109.9776,57.4,40,59,7.87,broken clouds
285,Antofagasta,CL,2021-09-27 00:25:39,-23.65,-70.4,56.48,84,45,4.03,scattered clouds
286,Longyearbyen,SJ,2021-09-27 00:25:39,78.2186,15.6401,39.04,87,75,18.41,light intensity drizzle
287,Guerrero Negro,MX,2021-09-27 00:25:39,27.9769,-114.0611,72.61,66,8,18.54,clear sky
288,Hirara,JP,2021-09-27 00:25:40,24.8,125.2833,86.27,79,20,10.36,few clouds
289,Bardiyah,LY,2021-09-27 00:25:40,31.7561,25.0865,72.28,61,0,6.6,clear sky
290,Verkhnechusovskiye Gorodki,RU,2021-09-27 00:25:40,58.1671,57.1086,38.95,71,100,12.1,overcast clouds
291,Labrea,BR,2021-09-27 00:25:41,-7.2586,-64.7981,77.95,75,70,3.09,broken clouds
292,Abashiri,JP,2021-09-27 00:25:41,44.0213,144.2697,63.95,82,20,6.91,few clouds
293,Ekhabi,RU,2021-09-27 00:25:42,53.5102,142.9671,54.73,50,18,8.37,few clouds
294,Soe,ID,2021-09-27 00:25:42,-9.8607,124.284,77.29,47,72,3.6,broken clouds
295,Narsaq,GL,2021-09-27 00:25:42,60.9167,-46.05,34.02,52,0,5.46,clear sky
296,Mitsamiouli,KM,2021-09-27 00:25:43,-11.3847,43.2844,74.91,74,5,3.53,clear sky
297,Cabo San Lucas,MX,2021-09-27 00:22:20,22.8909,-109.9124,91.62,73,15,1.01,few clouds
298,Turan,VN,2021-09-27 00:25:43,16.0678,108.2208,84.18,74,20,0.0,few clouds
299,Puerto Narino,CO,2021-09-27 00:25:43,-3.7703,-70.3831,80.08,71,96,1.41,overcast clouds
300,Ust-Kuyga,RU,2021-09-27 00:25:44,70.0167,135.6,33.8,99,100,4.47,light rain
301,Cochabamba,BO,2021-09-27 00:25:44,-17.3895,-66.1568,67.19,37,40,6.91,scattered clouds
302,Chokurdakh,RU,2021-09-27 00:25:44,70.6333,147.9167,26.83,93,100,16.35,light snow
303,Yarada,IN,2021-09-27 00:25:45,17.65,83.2667,77.32,100,90,17.27,thunderstorm with heavy rain
304,Samarai,PG,2021-09-27 00:25:45,-10.6167,150.6667,79.48,86,84,12.21,broken clouds
305,Grindavik,IS,2021-09-27 00:25:45,63.8424,-22.4338,40.95,81,90,29.93,overcast clouds
306,Clovis,US,2021-09-27 00:23:59,36.8252,-119.7029,89.37,24,1,9.22,smoke
307,Murakami,JP,2021-09-27 00:25:46,38.2333,139.4833,73.29,58,6,5.55,clear sky
308,Gushikawa,JP,2021-09-27 00:25:46,26.3544,127.8686,85.23,80,1,12.66,clear sky
309,Kahului,US,2021-09-27 00:25:46,20.8947,-156.47,84.22,82,40,25.32,scattered clouds
310,Hauterive,FR,2021-09-27 00:25:47,46.0901,3.4459,59.76,93,61,3.83,broken clouds
311,Powell,US,2021-09-27 00:25:47,40.1578,-83.0752,68.16,54,1,3.0,clear sky
312,Barguzin,RU,2021-09-27 00:25:47,53.6167,109.6167,35.83,88,100,5.84,overcast clouds
313,Coahuayana,MX,2021-09-27 00:25:47,18.7333,-103.6833,83.41,80,99,3.36,overcast clouds
314,Zhaotong,CN,2021-09-27 00:25:48,27.3167,103.7167,60.82,89,70,2.13,broken clouds
315,Longhua,CN,2021-09-27 00:25:48,23.6137,114.1919,81.19,78,17,1.07,light rain
316,Sioux Lookout,CA,2021-09-27 00:25:48,50.1001,-91.917,59.38,58,40,4.61,scattered clouds
317,Arrifes,PT,2021-09-27 00:25:49,37.7667,-25.7,68.23,88,75,9.22,broken clouds
318,Lamu,KE,2021-09-27 00:25:49,-2.2717,40.902,75.42,79,28,15.57,scattered clouds
319,Coos Bay,US,2021-09-27 00:25:49,43.3665,-124.2179,84.85,64,90,12.66,overcast clouds
320,North Myrtle Beach,US,2021-09-27 00:23:48,33.816,-78.68,73.09,79,1,0.0,clear sky
321,Vredendal,ZA,2021-09-27 00:25:50,-31.6683,18.5012,58.84,82,0,13.09,clear sky
322,Marevo,RU,2021-09-27 00:25:50,57.3146,32.0804,45.46,97,98,5.64,overcast clouds
323,Arlit,NE,2021-09-27 00:25:51,18.7369,7.3853,86.29,16,0,9.1,clear sky
324,Herouville-Saint-Clair,FR,2021-09-27 00:25:51,49.2109,-0.3065,63.59,88,0,11.5,clear sky
325,Ancud,CL,2021-09-27 00:25:51,-41.8697,-73.8203,42.33,79,19,6.22,few clouds
326,Oranjemund,NA,2021-09-27 00:25:52,-28.55,16.4333,56.05,97,44,6.49,scattered clouds
327,Visby,SE,2021-09-27 00:25:52,57.6409,18.296,56.95,93,90,10.36,overcast clouds
328,Olinda,BR,2021-09-27 00:21:50,-8.0089,-34.8553,76.73,78,40,12.66,scattered clouds
329,Presidencia Roque Saenz Pena,AR,2021-09-27 00:25:52,-26.7852,-60.4388,74.57,35,0,7.94,clear sky
330,Tezu,IN,2021-09-27 00:25:53,27.9167,96.1667,77.25,75,73,3.6,broken clouds
331,Poli,TZ,2021-09-27 00:25:53,-3.3333,36.8,55.54,81,49,2.77,scattered clouds
332,Isla Mujeres,MX,2021-09-27 00:25:53,21.2311,-86.731,84.25,78,53,8.32,broken clouds
333,Eyl,SO,2021-09-27 00:25:54,7.9803,49.8164,80.13,71,80,17.58,broken clouds
334,Killam,CA,2021-09-27 00:25:54,52.7834,-111.8518,76.95,29,80,5.75,broken clouds
335,Hithadhoo,MV,2021-09-27 00:25:54,-0.6,73.0833,82.33,74,100,17.78,overcast clouds
336,Hargeysa,SO,2021-09-27 00:25:54,9.56,44.065,72.03,57,28,15.5,scattered clouds
337,Sao Filipe,CV,2021-09-27 00:25:55,14.8961,-24.4956,78.75,80,52,6.26,broken clouds
338,Mandalgovi,MN,2021-09-27 00:25:55,45.7625,106.2708,44.11,32,0,9.04,clear sky
339,Denpasar,ID,2021-09-27 00:25:33,-8.65,115.2167,80.26,83,20,12.66,few clouds
340,Smithers,CA,2021-09-27 00:25:55,54.7804,-127.1743,59.32,67,75,3.44,broken clouds
341,Turinsk,RU,2021-09-27 00:25:56,58.0458,63.696,33.76,78,100,11.81,overcast clouds
342,Patu,BR,2021-09-27 00:25:56,-6.11,-37.6367,81.27,56,64,18.75,broken clouds
343,Mannarakkat,IN,2021-09-27 00:25:56,10.9833,76.4667,78.35,99,99,2.82,overcast clouds
344,Zomin,UZ,2021-09-27 00:25:57,39.9606,68.3958,61.18,52,0,5.37,clear sky
345,Havelock,US,2021-09-27 00:25:57,34.8791,-76.9013,67.95,83,0,4.03,clear sky
346,Lazaro Cardenas,MX,2021-09-27 00:22:12,17.9583,-102.2,82.53,80,97,5.23,overcast clouds
347,Kjopsvik,NO,2021-09-27 00:25:57,68.097,16.3742,56.17,89,100,7.85,overcast clouds
348,Tommot,RU,2021-09-27 00:25:58,58.9564,126.2925,42.66,77,100,9.6,light rain
349,Wanxian,CN,2021-09-27 00:25:58,30.8039,108.3897,78.94,83,64,3.36,light rain
350,Jacksonville Beach,US,2021-09-27 00:23:30,30.2947,-81.3931,77.05,69,1,10.36,clear sky
351,Nueva Helvecia,UY,2021-09-27 00:25:58,-34.3,-57.2333,60.6,89,18,8.16,few clouds
352,Karratha,AU,2021-09-27 00:25:59,-20.7377,116.8463,71.89,40,5,12.57,clear sky
353,Wairoa,NZ,2021-09-27 00:25:59,-39.0333,177.3667,56.61,83,98,4.0,overcast clouds
354,Cayenne,GF,2021-09-27 00:25:59,4.9333,-52.3333,83.08,77,47,4.0,scattered clouds
355,Kutum,SD,2021-09-27 00:26:00,14.2,24.6667,71.44,67,36,8.86,scattered clouds
356,Pasighat,IN,2021-09-27 00:26:00,28.0667,95.3333,74.05,93,79,4.12,broken clouds
357,Jeronimo Monteiro,BR,2021-09-27 00:26:00,-20.7894,-41.395,69.91,90,72,2.59,broken clouds
358,Nushki,PK,2021-09-27 00:26:01,29.5542,66.0215,75.92,16,1,4.65,clear sky
359,Killarney,IE,2021-09-27 00:26:01,52.05,-9.5167,49.33,88,100,5.08,overcast clouds
360,Puerto Carreno,CO,2021-09-27 00:26:01,6.189,-67.4859,81.48,75,99,3.87,overcast clouds
361,Usinsk,RU,2021-09-27 00:24:14,65.9939,57.5281,34.45,74,100,7.56,overcast clouds
362,Huarmey,PE,2021-09-27 00:26:02,-10.0681,-78.1522,63.7,85,43,6.06,scattered clouds
363,Puerto Maldonado,PE,2021-09-27 00:26:02,-12.6,-69.1833,81.0,78,0,0.0,clear sky
364,Jenison,US,2021-09-27 00:22:16,42.9072,-85.792,75.45,51,82,1.99,broken clouds
365,Carutapera,BR,2021-09-27 00:26:02,-1.195,-46.02,78.76,80,40,8.5,scattered clouds
366,Ust-Omchug,RU,2021-09-27 00:26:03,61.15,149.6333,34.18,68,17,3.85,few clouds
367,Ewa Beach,US,2021-09-27 00:26:03,21.3156,-158.0072,89.55,54,20,11.5,few clouds
368,High Prairie,CA,2021-09-27 00:26:03,55.4334,-116.4858,63.7,56,99,4.16,overcast clouds
369,Novosil,RU,2021-09-27 00:26:04,52.9739,37.0405,46.63,91,93,15.17,overcast clouds
370,Krasnovishersk,RU,2021-09-27 00:26:04,60.4078,57.082,37.17,71,100,7.4,overcast clouds
371,Mangrol,IN,2021-09-27 00:26:04,21.1167,70.1167,79.84,86,84,5.39,broken clouds
372,Kapoeta,SS,2021-09-27 00:26:05,4.7717,33.5903,72.91,82,67,4.61,broken clouds
373,Riyadh,SA,2021-09-27 00:21:33,24.6877,46.7219,78.94,29,90,8.28,overcast clouds
374,Codrington,AU,2021-09-27 00:26:05,-38.2667,141.9667,58.62,60,76,10.96,broken clouds
375,Kindu,CD,2021-09-27 00:26:06,-2.95,25.95,67.46,96,89,1.66,overcast clouds
376,Xai-Xai,MZ,2021-09-27 00:26:06,-25.0519,33.6442,66.43,83,0,6.53,clear sky
377,Hailey,US,2021-09-27 00:26:06,43.5196,-114.3153,76.86,16,1,10.36,clear sky
378,Wagar,SD,2021-09-27 00:26:07,16.1525,36.2032,83.08,54,3,7.96,clear sky
379,Bima,ID,2021-09-27 00:26:07,-8.4667,118.7167,81.68,68,43,5.3,scattered clouds
380,Tagusao,PH,2021-09-27 00:26:08,9.1924,117.8141,81.63,78,29,2.59,scattered clouds
381,Rawson,AR,2021-09-27 00:26:08,-43.3002,-65.1023,52.39,32,24,3.94,few clouds
382,Rio Gallegos,AR,2021-09-27 00:21:37,-51.6226,-69.2181,44.65,53,40,9.22,scattered clouds
383,Salinas,US,2021-09-27 00:26:08,36.6777,-121.6555,76.96,70,1,12.66,clear sky
384,Sovetskaya Gavan,RU,2021-09-27 00:26:09,48.9723,140.2878,59.25,57,100,1.57,overcast clouds
385,Jaicos,BR,2021-09-27 00:26:09,-7.3592,-41.1378,85.51,31,45,5.99,scattered clouds
386,Makakilo City,US,2021-09-27 00:26:09,21.3469,-158.0858,88.12,54,20,11.5,few clouds
387,Tateyama,JP,2021-09-27 00:26:10,34.9833,139.8667,76.1,67,17,17.85,few clouds
388,Suslovo,RU,2021-09-27 00:26:10,56.2167,88.1167,30.92,96,91,3.89,overcast clouds
389,Shchigry,RU,2021-09-27 00:26:10,51.8755,36.9043,48.02,85,82,14.76,broken clouds
390,Brandon,US,2021-09-27 00:26:10,27.9378,-82.2859,82.89,84,90,1.01,overcast clouds
391,High Level,CA,2021-09-27 00:26:11,58.5169,-117.136,46.51,93,90,5.75,light rain
392,Dingzhou,CN,2021-09-27 00:26:11,38.5131,114.9956,62.71,85,83,3.09,light rain
393,Tignere,CM,2021-09-27 00:26:12,7.3667,12.65,63.28,91,97,1.23,overcast clouds
394,Ratnagiri,IN,2021-09-27 00:26:12,16.9833,73.3,76.26,90,61,2.26,broken clouds
395,Ponta Delgada,PT,2021-09-27 00:26:12,37.7333,-25.6667,70.5,88,75,9.22,broken clouds
396,Saint George,US,2021-09-27 00:21:18,37.1041,-113.5841,90.43,22,1,1.01,clear sky
397,Gikongoro,RW,2021-09-27 00:26:13,-2.464,29.5739,58.05,85,56,3.4,broken clouds
398,Beringovskiy,RU,2021-09-27 00:26:13,63.05,179.3167,36.86,87,97,1.32,overcast clouds
399,Keningau,MY,2021-09-27 00:26:13,5.3378,116.1602,75.65,93,88,1.81,overcast clouds
400,Kaoma,ZM,2021-09-27 00:26:14,-14.7833,24.8,63.3,31,74,3.69,broken clouds
401,Kovdor,RU,2021-09-27 00:26:14,67.5662,30.4758,41.92,87,99,7.81,overcast clouds
402,Grand Gaube,MU,2021-09-27 00:26:14,-20.0064,57.6608,70.2,90,58,11.99,light rain
403,Pacific Grove,US,2021-09-27 00:26:15,36.6177,-121.9166,76.57,79,1,5.99,clear sky
404,Dordrecht,NL,2021-09-27 00:26:15,51.81,4.6736,62.74,90,76,1.01,broken clouds
405,Pisco,PE,2021-09-27 00:26:15,-13.7,-76.2167,60.85,82,0,13.8,clear sky
406,Merritt,CA,2021-09-27 00:26:16,50.1123,-120.7942,63.45,54,89,6.46,overcast clouds
407,Rock Sound,BS,2021-09-27 00:26:16,24.9,-76.2,82.56,72,94,12.88,overcast clouds
408,Hasaki,JP,2021-09-27 00:26:16,35.7333,140.8333,75.29,61,14,17.6,few clouds
409,Abnub,EG,2021-09-27 00:26:17,27.2696,31.1511,74.55,41,20,7.94,few clouds
410,Okha,RU,2021-09-27 00:26:17,53.5739,142.9478,54.48,52,15,8.14,few clouds
411,Cabra,ES,2021-09-27 00:26:17,37.4725,-4.4421,70.39,56,85,1.81,overcast clouds
412,Zabid,YE,2021-09-27 00:26:18,14.1951,43.3152,85.91,75,8,7.45,clear sky
413,Mukono,UG,2021-09-27 00:26:18,0.3533,32.7553,63.18,96,76,0.45,light rain
414,Jiangkou,CN,2021-09-27 00:26:18,25.4872,119.1986,76.89,69,0,5.17,clear sky
415,Cordoba,AR,2021-09-27 00:22:50,-31.4135,-64.1811,67.75,35,0,4.0,clear sky
416,Methana,GR,2021-09-27 00:26:19,37.5823,23.3914,73.78,52,0,7.4,clear sky
417,Geraldton,AU,2021-09-27 00:26:19,-28.7667,114.6,64.81,59,9,14.97,clear sky
418,Mirosi,RO,2021-09-27 00:26:19,44.4167,24.9333,59.45,52,2,7.7,clear sky
419,Oussouye,SN,2021-09-27 00:26:20,12.485,-16.5469,80.78,86,100,5.41,overcast clouds
420,Caceres,ES,2021-09-27 00:26:20,39.522,-6.3748,59.81,61,97,2.51,overcast clouds
421,Planeta Rica,CO,2021-09-27 00:26:20,8.4147,-75.5883,81.37,80,51,6.98,broken clouds
422,Tuatapere,NZ,2021-09-27 00:26:21,-46.1333,167.6833,48.81,44,5,0.81,clear sky
423,Pastos Bons,BR,2021-09-27 00:26:21,-6.6017,-44.0767,86.86,28,57,2.51,broken clouds
424,Qorveh,IR,2021-09-27 00:26:21,35.1664,47.8045,53.11,47,0,3.94,clear sky
425,Svetlogorsk,BY,2021-09-27 00:26:22,52.6333,29.7333,41.76,95,0,6.53,clear sky
426,Mangai,CD,2021-09-27 00:26:22,-4.05,19.5333,70.97,93,100,1.23,light rain
427,San Onofre,CO,2021-09-27 00:26:22,9.7359,-75.5263,80.37,90,82,7.02,broken clouds
428,Faya,SA,2021-09-27 00:26:23,18.3851,42.4509,63.12,24,3,3.4,clear sky
429,Moroni,KM,2021-09-27 00:26:23,-11.7022,43.2551,74.03,71,5,0.96,clear sky
430,Shelburne,CA,2021-09-27 00:26:23,44.0787,-80.2041,57.67,66,85,9.86,overcast clouds
431,Baherden,TM,2021-09-27 00:26:24,38.4362,57.4316,58.32,71,10,1.36,clear sky
432,Alingsas,SE,2021-09-27 00:26:24,57.9303,12.5335,56.52,82,70,6.22,broken clouds
433,Koutiala,ML,2021-09-27 00:26:24,12.3917,-5.4642,79.12,65,83,4.97,broken clouds
434,Broome,US,2021-09-27 00:26:25,42.2506,-75.833,59.58,67,90,5.75,overcast clouds
435,Teguldet,RU,2021-09-27 00:26:25,57.3064,88.1667,29.71,96,41,5.7,scattered clouds
436,Najran,SA,2021-09-27 00:26:25,17.4924,44.1277,75.85,21,6,4.56,clear sky
437,Phangnga,TH,2021-09-27 00:26:26,8.4509,98.5298,75.31,92,99,1.34,overcast clouds
438,Chulym,RU,2021-09-27 00:26:26,55.0997,80.9572,35.55,95,100,8.12,overcast clouds
439,Yumen,CN,2021-09-27 00:26:26,40.2833,97.2,58.6,22,44,12.1,scattered clouds
440,Lumding,IN,2021-09-27 00:26:27,25.7535,93.1732,77.27,87,94,1.07,overcast clouds
441,Seryshevo,RU,2021-09-27 00:26:27,51.0933,128.3786,55.33,96,100,15.88,overcast clouds
442,Adrar,MR,2021-09-27 00:26:27,20.5022,-10.0711,93.31,11,2,10.2,clear sky
443,Le Tampon,RE,2021-09-27 00:26:28,-21.2667,55.5167,62.37,76,75,4.61,light rain
444,Madang,PG,2021-09-27 00:26:28,-5.2246,145.7966,81.05,84,99,2.51,overcast clouds
445,Mikhaylovka,RU,2021-09-27 00:26:28,50.06,43.2379,48.52,84,45,16.75,scattered clouds
446,Coihueco,CL,2021-09-27 00:26:28,-36.6167,-71.8333,50.74,54,42,6.91,scattered clouds
447,Poco Verde,BR,2021-09-27 00:26:29,-10.7083,-38.1833,70.21,92,36,9.69,scattered clouds
448,Rio Grande,BR,2021-09-27 00:26:29,-32.035,-52.0986,61.95,93,1,8.95,clear sky
449,Bakchar,RU,2021-09-27 00:26:29,57.0186,82.0711,36.28,96,99,5.12,overcast clouds
450,Tual,ID,2021-09-27 00:26:30,-5.6667,132.75,80.64,82,99,12.5,overcast clouds
451,Kawalu,ID,2021-09-27 00:26:30,-7.3817,108.2082,73.53,93,94,2.28,overcast clouds
452,Toamasina,MG,2021-09-27 00:26:30,-18.1667,49.3833,66.2,100,40,4.61,light rain
453,Prince Rupert,CA,2021-09-27 00:26:31,54.3161,-130.3201,51.89,90,90,4.61,light rain
454,Salalah,OM,2021-09-27 00:26:31,17.0151,54.0924,80.69,89,40,3.44,scattered clouds
455,Vung Tau,VN,2021-09-27 00:25:53,10.346,107.0843,81.79,82,85,12.44,overcast clouds
456,Nemuro,JP,2021-09-27 00:26:31,43.3236,145.575,61.23,77,7,10.6,clear sky
457,Ouadda,CF,2021-09-27 00:26:32,8.0777,22.4007,67.23,94,97,0.67,overcast clouds
458,Marzuq,YE,2021-09-27 00:26:32,14.4,46.4667,75.31,15,6,2.84,clear sky
459,Medea,DZ,2021-09-27 00:26:32,36.2642,2.7539,61.25,79,91,1.72,overcast clouds
460,Black River,JM,2021-09-27 00:26:33,18.0264,-77.8487,82.98,74,40,2.37,scattered clouds
461,Norman Wells,CA,2021-09-27 00:26:33,65.282,-126.8329,35.64,69,75,5.75,broken clouds
462,Wangqing,CN,2021-09-27 00:26:33,43.3218,129.7634,61.83,88,100,3.89,overcast clouds
463,Ketchikan,US,2021-09-27 00:26:34,55.3422,-131.6461,51.78,92,100,5.37,moderate rain
464,Plouzane,FR,2021-09-27 00:26:34,48.3833,-4.6167,64.72,94,90,26.46,overcast clouds
465,Jadu,LY,2021-09-27 00:26:34,31.953,12.0261,70.56,36,94,10.22,overcast clouds
466,Plast,RU,2021-09-27 00:26:35,54.3691,60.8136,36.52,71,100,17.07,overcast clouds
467,Kalemie,CD,2021-09-27 00:26:35,-5.9475,29.1947,73.63,50,17,3.29,few clouds
468,Mbarara,UG,2021-09-27 00:26:35,-0.608,30.65,61.59,88,20,3.49,few clouds
469,Laguna,US,2021-09-27 00:26:36,38.421,-121.4238,88.21,47,1,5.99,clear sky
470,Chaohu,CN,2021-09-27 00:26:36,31.6,117.8667,73.51,88,65,7.38,broken clouds
471,Ossora,RU,2021-09-27 00:26:37,59.2353,163.0719,48.81,68,96,7.78,overcast clouds
472,Half Moon Bay,US,2021-09-27 00:26:37,37.4636,-122.4286,74.88,72,90,1.01,overcast clouds
473,Lianzhou,CN,2021-09-27 00:26:37,24.7811,112.3825,82.36,72,24,0.76,few clouds
474,Murray,US,2021-09-27 00:25:43,40.6669,-111.888,87.62,20,1,1.01,clear sky
475,Iquique,CL,2021-09-27 00:26:38,-20.2208,-70.1431,60.84,76,23,0.96,few clouds
476,College,US,2021-09-27 00:24:59,64.8569,-147.8028,36.59,73,75,3.44,broken clouds
477,Honiara,SB,2021-09-27 00:26:38,-9.4333,159.95,84.58,72,93,6.46,overcast clouds
478,Zdvinsk,RU,2021-09-27 00:26:38,54.7021,78.661,35.69,89,82,6.87,broken clouds
479,Comodoro Rivadavia,AR,2021-09-27 00:26:24,-45.8667,-67.5,44.46,49,0,9.22,clear sky
480,Omsukchan,RU,2021-09-27 00:26:39,62.5333,155.8,30.27,70,93,3.96,overcast clouds
481,Mahuva,IN,2021-09-27 00:26:39,21.0914,71.7622,78.42,86,100,5.5,overcast clouds
482,Tonj,SS,2021-09-27 00:26:39,7.2737,28.6822,69.49,93,37,2.46,scattered clouds
483,Madimba,TZ,2021-09-27 00:26:40,-10.4,40.3333,70.84,91,7,4.0,clear sky
484,Kalamare,BW,2021-09-27 00:26:40,-22.9337,26.5703,69.19,27,0,12.15,clear sky
485,Brandfort,ZA,2021-09-27 00:26:40,-28.7001,26.4597,60.21,23,6,9.75,clear sky
486,Ajdabiya,LY,2021-09-27 00:26:41,30.7554,20.2263,71.15,66,0,9.46,clear sky
487,Krasnoselkup,RU,2021-09-27 00:26:41,65.7,82.4667,33.49,90,59,7.85,broken clouds
488,Gizo,SB,2021-09-27 00:26:41,-8.103,156.8419,84.02,68,95,3.4,overcast clouds
489,Nueve De Julio,AR,2021-09-27 00:26:42,-35.4444,-60.8831,60.42,61,99,18.75,overcast clouds
490,Victor Harbor,AU,2021-09-27 00:26:42,-35.5667,138.6167,70.81,66,96,10.69,overcast clouds
491,Bandarbeyla,SO,2021-09-27 00:26:42,9.4942,50.8122,78.64,78,38,16.31,scattered clouds
492,Tokur,RU,2021-09-27 00:26:43,53.1333,132.9,49.08,74,97,3.6,overcast clouds
493,Kasongo-Lunda,CD,2021-09-27 00:26:43,-6.4667,16.8167,71.37,85,99,2.55,overcast clouds
494,Hazorasp,UZ,2021-09-27 00:26:43,41.3194,61.0742,51.64,56,2,9.28,clear sky
495,Vakhtan,RU,2021-09-27 00:26:44,57.9659,46.6889,45.19,94,100,7.92,overcast clouds
496,Bridgetown,BB,2021-09-27 00:24:56,13.1,-59.6167,81.09,89,40,12.66,scattered clouds
497,San Luis,AR,2021-09-27 00:26:44,-33.295,-66.3356,59.86,37,1,16.28,clear sky
498,Gold Coast,AU,2021-09-27 00:22:04,-28.0,153.4333,69.91,72,90,1.01,light rain
499,Mount Gambier,AU,2021-09-27 00:26:44,-37.8333,140.7667,58.91,55,48,9.22,scattered clouds
500,Agadir,MA,2021-09-27 00:26:45,30.4202,-9.5982,64.85,58,1,4.59,clear sky
501,Mamakan,RU,2021-09-27 00:26:45,57.8161,114.0028,37.8,86,97,4.12,overcast clouds
502,Bahia Honda,CU,2021-09-27 00:26:45,22.9036,-83.1592,80.02,81,15,6.93,light rain
503,Hurricane,US,2021-09-27 00:23:03,37.1753,-113.2899,88.5,28,93,8.5,overcast clouds
504,Tautira,PF,2021-09-27 00:26:46,-17.7333,-149.15,84.22,78,14,13.71,few clouds
505,Florianopolis,BR,2021-09-27 00:26:46,-27.6146,-48.5012,69.4,91,0,5.75,clear sky
506,Neya,RU,2021-09-27 00:26:46,58.2972,43.8681,47.3,94,100,7.99,overcast clouds
507,Spencer,US,2021-09-27 00:26:47,43.1414,-95.1444,80.71,45,1,6.91,clear sky
508,Kalaleh,IR,2021-09-27 00:26:47,37.3807,55.4916,60.4,94,20,0.0,few clouds
509,Kanigiri,IN,2021-09-27 00:26:47,15.4,79.5167,80.19,74,100,12.21,overcast clouds
510,Lavrentiya,RU,2021-09-27 00:26:48,65.5833,-171.0,33.8,82,86,4.83,overcast clouds
511,Axim,GH,2021-09-27 00:26:48,4.8699,-2.2405,74.8,91,100,5.35,light rain
512,Normandin,CA,2021-09-27 00:26:48,48.8333,-72.5321,50.31,100,64,5.75,broken clouds
513,Sechura,PE,2021-09-27 00:26:49,-5.5569,-80.8222,67.69,75,64,13.58,broken clouds
514,Mayahi,NE,2021-09-27 00:26:49,13.9553,7.6712,87.15,17,5,6.82,clear sky
515,Kathu,TH,2021-09-27 00:26:49,7.9178,98.3332,75.02,79,99,3.53,light rain
516,Fukue,JP,2021-09-27 00:26:50,32.6881,128.8419,75.56,83,0,6.91,clear sky
517,Paso De Carrasco,UY,2021-09-27 00:26:50,-34.8603,-56.0522,60.94,82,0,8.05,clear sky
518,Chardara,KZ,2021-09-27 00:26:51,41.2547,67.9692,62.28,50,0,16.58,clear sky
519,Rundu,NA,2021-09-27 00:26:51,-17.9333,19.7667,64.89,16,0,4.52,clear sky
520,Armidale,AU,2021-09-27 00:26:51,-30.5167,151.65,52.81,49,46,7.83,scattered clouds
521,Puerto Ayacucho,VE,2021-09-27 00:26:52,5.6639,-67.6236,77.85,84,89,3.98,overcast clouds
522,Vestmannaeyjar,IS,2021-09-27 00:26:52,63.4427,-20.2734,43.29,76,97,10.36,overcast clouds
523,Simao,CN,2021-09-27 00:26:53,22.7886,100.9748,63.75,91,28,1.32,scattered clouds
524,Aktau,KZ,2021-09-27 00:26:53,43.65,51.2,66.78,69,17,22.82,few clouds
525,Lokosovo,RU,2021-09-27 00:26:53,61.1333,74.8167,30.49,91,10,5.7,clear sky
526,Mabaruma,GY,2021-09-27 00:26:54,8.2,-59.7833,77.07,86,15,3.51,few clouds
527,Havre-Saint-Pierre,CA,2021-09-27 00:26:54,50.2334,-63.5986,57.56,94,90,16.11,overcast clouds
528,Alice Springs,AU,2021-09-27 00:26:54,-23.7,133.8833,81.95,10,54,11.5,broken clouds
529,Gamba,GA,2021-09-27 00:26:55,-2.65,10.0,76.26,85,100,4.54,overcast clouds
530,Mitu,CO,2021-09-27 00:26:55,1.1983,-70.1733,76.86,77,95,1.48,overcast clouds
531,Leshukonskoye,RU,2021-09-27 00:26:55,64.8989,45.7622,43.84,97,100,2.89,overcast clouds
532,Ugoofaaru,MV,2021-09-27 00:26:56,5.6667,73.0,80.73,73,100,25.5,overcast clouds
533,Mana,GF,2021-09-27 00:26:56,5.6592,-53.7767,81.48,79,16,12.26,few clouds
534,Waingapu,ID,2021-09-27 00:26:56,-9.6567,120.2641,81.16,62,98,5.5,overcast clouds
535,Guhagar,IN,2021-09-27 00:26:57,17.4842,73.1929,75.43,92,89,2.42,overcast clouds
536,Nuuk,GL,2021-09-27 00:26:57,64.1835,-51.7216,30.81,69,1,5.75,clear sky
537,Celestun,MX,2021-09-27 00:26:57,20.8667,-90.4,82.83,76,58,11.92,broken clouds
538,Katobu,ID,2021-09-27 00:26:58,-4.9408,122.5276,80.83,71,71,5.17,broken clouds
539,Mlowo,TZ,2021-09-27 00:26:58,-9.0,32.9833,59.25,62,37,3.06,scattered clouds
540,Gusau,NG,2021-09-27 00:26:58,12.1628,6.6614,77.92,53,11,7.99,few clouds
541,Alofi,NU,2021-09-27 00:26:58,-19.0595,-169.9187,80.49,61,51,8.05,broken clouds
542,Amambai,BR,2021-09-27 00:26:59,-23.1042,-55.2258,79.0,41,12,6.51,few clouds
543,Palencia,ES,2021-09-27 00:26:59,42.4167,-4.5,56.91,70,100,9.6,overcast clouds
544,Tigre,AR,2021-09-27 00:26:59,-34.426,-58.5796,70.29,70,0,8.05,clear sky
545,Paralia,GR,2021-09-27 00:27:00,38.2,21.7,69.31,51,0,1.79,clear sky
546,Nador,MA,2021-09-27 00:27:00,35.174,-2.9287,64.65,94,0,1.14,clear sky
547,Altamira,BR,2021-09-27 00:27:00,-3.2033,-52.2064,78.89,71,99,4.47,overcast clouds
548,Ocampo,MX,2021-09-27 00:27:01,21.65,-101.5,68.95,52,100,2.77,overcast clouds
549,Mingyue,CN,2021-09-27 00:27:01,43.1069,128.9217,59.9,94,100,3.36,overcast clouds
550,Sembakung,ID,2021-09-27 00:27:01,3.8167,117.25,82.33,88,59,1.95,broken clouds
551,Kotelnikovo,RU,2021-09-27 00:27:02,47.6317,43.1461,51.19,75,3,15.66,clear sky
552,San Borja,BO,2021-09-27 00:27:02,-14.8167,-66.85,88.12,33,53,2.46,broken clouds
553,Manoel Urbano,BR,2021-09-27 00:27:02,-8.8389,-69.2597,78.78,67,42,3.2,scattered clouds
554,Jodhpur,IN,2021-09-27 00:27:03,26.2867,73.03,83.19,71,96,7.29,overcast clouds
555,Coquimbo,CL,2021-09-27 00:27:03,-29.9533,-71.3436,55.13,94,0,5.75,clear sky
556,Saint-Francois,FR,2021-09-27 00:26:56,46.4154,3.9054,54.84,100,0,3.44,clear sky
557,Yenagoa,NG,2021-09-27 00:27:04,4.9247,6.2642,73.98,94,97,2.98,overcast clouds
558,Sao Joao Da Barra,BR,2021-09-27 00:27:04,-21.6403,-41.0511,73.02,81,68,18.5,broken clouds
559,Port Arthur,CN,2021-09-27 00:27:04,38.8,121.2667,66.42,91,100,11.52,light rain
560,Thunder Bay,CA,2021-09-27 00:22:44,48.4001,-89.3168,59.99,74,20,4.61,few clouds
561,Mount Isa,AU,2021-09-27 00:27:05,-20.7333,139.5,87.57,11,2,13.8,clear sky
562,Praia,CV,2021-09-27 00:27:05,14.9215,-23.5087,79.34,78,20,8.05,few clouds
563,La Ronge,CA,2021-09-27 00:27:05,55.1001,-105.2842,61.05,59,90,3.44,overcast clouds
564,San Carlos De Bariloche,AR,2021-09-27 00:27:06,-41.1456,-71.3082,40.75,60,0,8.05,clear sky
565,Neiafu,TO,2021-09-27 00:27:06,-18.65,-173.9833,79.48,57,75,5.75,broken clouds
566,Waren,DE,2021-09-27 00:27:06,53.5167,12.6833,60.37,82,40,7.34,scattered clouds
567,Khani,GE,2021-09-27 00:27:06,41.9563,42.9566,40.57,85,59,4.45,broken clouds
568,Qurayyat,SA,2021-09-27 00:27:07,31.3318,37.3428,71.78,24,0,6.91,clear sky
569,Tigzirt,DZ,2021-09-27 00:27:07,36.8886,4.1198,72.88,88,54,3.91,broken clouds
570,Jalor,IN,2021-09-27 00:27:07,25.35,72.6167,83.44,75,51,2.8,broken clouds
571,Kailua,US,2021-09-27 00:26:10,21.4022,-157.7394,89.58,70,20,20.22,few clouds
572,Duluth,US,2021-09-27 00:27:08,46.7833,-92.1066,68.05,72,1,6.91,clear sky
573,Vila Do Maio,CV,2021-09-27 00:27:08,15.1333,-23.2167,79.59,79,37,9.01,scattered clouds
574,Erenhot,CN,2021-09-27 00:27:08,43.6475,111.9767,54.95,33,0,9.69,clear sky
575,Harrison,US,2021-09-27 00:27:09,30.4091,-89.0436,75.27,71,1,3.44,clear sky
576,Beira,MZ,2021-09-27 00:27:09,-19.8436,34.8389,68.09,100,20,4.61,few clouds
577,Shunyi,CN,2021-09-27 00:27:09,40.125,116.6453,67.95,90,0,6.71,clear sky
578,Guatire,VE,2021-09-27 00:27:10,10.4762,-66.5427,81.1,90,92,2.06,overcast clouds
579,Los Andes,CL,2021-09-27 00:27:10,-32.8337,-70.5983,61.02,52,2,1.32,clear sky
580,Canavieiras,BR,2021-09-27 00:27:10,-15.675,-38.9472,71.87,86,77,5.75,broken clouds
581,Campina Verde,BR,2021-09-27 00:27:11,-19.5356,-49.4864,72.34,72,91,6.78,overcast clouds
582,Korla,CN,2021-09-27 00:27:11,41.7597,86.1469,58.95,29,0,3.85,clear sky
583,La Paz,BO,2021-09-27 00:25:08,-16.5,-68.15,49.98,53,20,9.22,few clouds
584,Uarini,BR,2021-09-27 00:27:11,-2.99,-65.1083,73.2,99,63,2.55,broken clouds
585,Road Town,VG,2021-09-27 00:27:12,18.4167,-64.6167,83.19,73,3,9.93,clear sky
586,Gatton,AU,2021-09-27 00:27:12,-27.55,152.2833,67.93,61,85,11.59,overcast clouds
587,Karpathos,GR,2021-09-27 00:27:12,35.507,27.2132,71.56,78,0,12.66,clear sky
588,Hualmay,PE,2021-09-27 00:27:13,-11.0964,-77.6139,62.56,84,38,7.52,scattered clouds
589,Ngama,TD,2021-09-27 00:25:19,11.7833,17.1667,77.86,65,86,8.61,overcast clouds
590,Nelson Bay,AU,2021-09-27 00:27:13,-32.7167,152.15,67.08,52,14,1.99,few clouds
591,Batagay,RU,2021-09-27 00:27:14,67.6333,134.6333,34.65,83,93,3.98,overcast clouds
592,Siddipet,IN,2021-09-27 00:27:14,18.1,78.85,72.43,95,100,8.84,overcast clouds
593,Gravdal,NO,2021-09-27 00:27:14,68.1214,13.5031,51.76,93,100,15.84,overcast clouds
594,Antequera,ES,2021-09-27 00:27:15,37.0194,-4.5612,65.44,47,80,0.29,broken clouds
595,Lakhnadon,IN,2021-09-27 00:27:15,22.6,79.6,72.52,91,92,3.69,overcast clouds
596,Poum,NC,2021-09-27 00:27:15,-20.2333,164.0167,72.73,60,83,3.51,broken clouds
597,Neftcala,AZ,2021-09-27 00:27:16,39.3742,49.2472,67.64,68,0,14.67,clear sky
598,Hamilton,US,2021-09-27 00:24:59,39.1834,-84.5333,67.91,59,1,4.61,clear sky
599,Weston,US,2021-09-27 00:22:40,26.1004,-80.3998,83.01,75,40,5.99,scattered clouds
600,Chebsara,RU,2021-09-27 00:27:16,59.2002,38.8356,45.73,96,99,8.05,overcast clouds
601,Santa Rosa,PH,2021-09-27 00:27:16,14.3122,121.1114,80.85,82,98,4.29,overcast clouds
602,Miraflores,MX,2021-09-27 00:27:17,19.2167,-98.8083,68.04,81,80,3.2,broken clouds
603,Isangel,VU,2021-09-27 00:27:17,-19.55,169.2667,77.11,78,90,5.75,overcast clouds
604,Paraiso,CR,2021-09-27 00:27:17,9.8383,-83.8656,69.96,66,100,2.57,overcast clouds
605,Shitanjing,CN,2021-09-27 00:27:18,39.2342,106.3439,59.29,52,37,9.31,scattered clouds
606,Bexhill,AU,2021-09-27 00:27:18,-28.7667,153.35,64.04,79,75,1.99,broken clouds
607,Mayskiy,RU,2021-09-27 00:27:18,47.6931,40.1025,51.44,69,1,11.3,clear sky
608,Mao,ES,2021-09-27 00:27:19,39.8885,4.2658,70.36,88,0,6.91,clear sky
609,Voloka,UA,2021-09-27 00:27:19,48.1922,25.9307,60.78,82,63,1.68,broken clouds
610,Moerai,PF,2021-09-27 00:27:19,-22.4333,-151.3333,76.21,85,75,9.57,broken clouds
611,Atambua,ID,2021-09-27 00:27:19,-9.1061,124.8925,81.59,50,36,0.78,scattered clouds
612,Fairbanks,US,2021-09-27 00:27:20,64.8378,-147.7164,36.61,73,75,3.44,broken clouds
613,Slobozia,MD,2021-09-27 00:27:20,46.7281,29.7078,54.48,69,2,5.46,clear sky
614,Langsa,ID,2021-09-27 00:27:20,4.4683,97.9683,74.16,96,100,4.03,overcast clouds
615,Vytegra,RU,2021-09-27 00:27:21,61.0064,36.4481,42.04,93,27,3.31,scattered clouds
616,Port Lincoln,AU,2021-09-27 00:27:21,-34.7333,135.8667,63.73,49,73,16.33,broken clouds
617,Sobolevo,RU,2021-09-27 00:27:21,54.4299,31.8996,45.81,92,69,9.62,broken clouds
618,Quatre Cocos,MU,2021-09-27 00:27:22,-20.2078,57.7625,69.91,82,83,20.29,light rain
619,Katete,UG,2021-09-27 00:27:22,-0.7818,29.7544,58.93,95,27,3.09,scattered clouds
620,Tukrah,LY,2021-09-27 00:27:23,32.5341,20.5791,73.45,64,0,9.15,clear sky
621,Muscat,OM,2021-09-27 00:27:23,23.6139,58.5922,87.82,60,20,4.43,few clouds
622,Nantucket,US,2021-09-27 00:26:34,41.2835,-70.0995,66.96,60,6,22.95,clear sky
623,Puerto Escondido,MX,2021-09-27 00:27:23,15.85,-97.0667,79.63,61,40,5.75,scattered clouds
624,Kundiawa,PG,2021-09-27 00:27:24,-6.0167,144.9667,76.91,57,88,2.98,overcast clouds
625,Biak,ID,2021-09-27 00:27:24,-0.9131,122.8766,79.54,72,100,5.61,overcast clouds
626,Sept-Iles,CA,2021-09-27 00:27:24,50.2001,-66.3821,56.25,97,90,15.01,mist
627,Dvinskoy,RU,2021-09-27 00:27:25,62.1535,45.1175,45.39,95,100,5.77,overcast clouds
628,Zvishavane,ZW,2021-09-27 00:27:25,-20.3267,30.0665,63.73,32,0,1.66,clear sky
629,Walvis Bay,NA,2021-09-27 00:27:26,-22.9575,14.5053,56.08,100,7,5.75,clear sky
630,Te Anau,NZ,2021-09-27 00:27:26,-45.4167,167.7167,47.25,45,7,1.54,clear sky
631,Onguday,RU,2021-09-27 00:27:26,50.75,86.15,20.44,95,29,1.57,scattered clouds
632,Linhares,BR,2021-09-27 00:27:27,-19.3911,-40.0722,70.56,81,28,4.38,scattered clouds
633,Bonoua,CI,2021-09-27 00:27:27,5.2741,-3.595,76.62,95,100,4.18,overcast clouds
634,Broken Hill,AU,2021-09-27 00:27:27,-31.95,141.4333,64.11,19,61,12.66,broken clouds
635,Uddevalla,SE,2021-09-27 00:27:28,58.3478,11.9424,57.06,93,70,4.83,broken clouds
636,Batticaloa,LK,2021-09-27 00:27:28,7.7102,81.6924,80.13,75,100,8.12,overcast clouds
637,Jumla,NP,2021-09-27 00:27:28,29.2747,82.1838,57.45,86,46,2.8,scattered clouds
638,Yaan,NG,2021-09-27 00:27:29,7.3833,8.5667,70.77,97,66,5.17,light rain
639,Wajir,KE,2021-09-27 00:27:29,1.7471,40.0573,75.81,60,3,14.18,clear sky
640,Bembereke,BJ,2021-09-27 00:27:29,10.2283,2.6634,73.04,83,73,6.04,broken clouds
641,Conceicao Da Barra,BR,2021-09-27 00:24:29,-18.5933,-39.7322,73.74,75,56,10.89,broken clouds
642,Zhigansk,RU,2021-09-27 00:27:30,66.7697,123.3711,34.88,77,71,21.63,broken clouds
643,Sistranda,NO,2021-09-27 00:27:30,63.7256,8.834,58.96,89,98,7.29,overcast clouds
644,Boende,CD,2021-09-27 00:27:30,-0.2167,20.8667,70.03,98,94,2.44,overcast clouds
645,Lompoc,US,2021-09-27 00:26:26,34.6391,-120.4579,66.56,78,1,8.05,clear sky
646,Port Angeles,US,2021-09-27 00:23:48,48.1181,-123.4307,57.72,96,90,0.0,moderate rain
647,Neijiang,CN,2021-09-27 00:27:31,29.5835,105.0622,67.1,89,100,3.0,overcast clouds
648,Satwas,IN,2021-09-27 00:27:31,22.5333,76.6833,75.16,91,100,4.56,overcast clouds
649,Sao Gabriel Da Cachoeira,BR,2021-09-27 00:27:32,-0.1303,-67.0892,72.55,98,60,2.57,broken clouds
650,Logan Lake,CA,2021-09-27 00:27:32,50.4998,-120.8025,61.39,58,76,10.71,broken clouds
651,Denizli,TR,2021-09-27 00:27:32,37.8402,29.0698,59.85,38,28,2.86,scattered clouds
652,Pringsewu,ID,2021-09-27 00:25:17,-5.3582,104.9744,76.14,90,58,0.56,broken clouds
653,Porto Walter,BR,2021-09-27 00:27:33,-8.2686,-72.7439,78.73,68,73,2.39,broken clouds
654,Vanavara,RU,2021-09-27 00:27:33,60.34,102.2797,32.18,94,100,11.83,light snow
655,Koping,SE,2021-09-27 00:27:33,59.514,15.9926,52.18,88,99,4.32,overcast clouds
656,Batemans Bay,AU,2021-09-27 00:27:33,-35.7167,150.1833,64.2,45,68,7.14,broken clouds
657,Zhuanghe,CN,2021-09-27 00:27:34,39.7008,122.9911,64.67,93,100,6.42,light rain
658,Duekoue,CI,2021-09-27 00:27:34,6.7472,-7.3496,69.04,100,100,3.38,light rain
659,Nalut,LY,2021-09-27 00:27:35,30.3333,10.85,77.31,24,82,9.62,broken clouds
660,Manokwari,ID,2021-09-27 00:27:35,-0.8667,134.0833,82.87,70,35,3.13,scattered clouds
661,Guanica,PR,2021-09-27 00:27:35,17.9716,-66.908,85.14,93,44,4.21,scattered clouds
662,Bereda,ES,2021-09-27 00:27:36,43.2686,-7.5406,64.99,86,100,9.35,overcast clouds
663,Cap Malheureux,MU,2021-09-27 00:27:36,-19.9842,57.6142,70.29,90,52,11.99,light rain
664,Bijie,CN,2021-09-27 00:27:36,27.3125,105.2942,63.59,93,99,2.51,overcast clouds
665,Porto Novo,BJ,2021-09-27 00:27:37,6.4965,2.6036,78.62,87,95,4.27,overcast clouds
666,Lebedyn,UA,2021-09-27 00:27:37,50.5852,34.4849,43.39,93,5,9.69,clear sky
667,Tutoia,BR,2021-09-27 00:27:37,-2.7619,-42.2744,79.47,84,47,11.03,scattered clouds
668,Cozumel,MX,2021-09-27 00:27:32,20.5083,-86.9458,84.18,84,75,3.44,broken clouds
669,Inhambane,MZ,2021-09-27 00:27:38,-23.865,35.3833,70.9,91,1,6.71,clear sky
670,Haldwani,IN,2021-09-27 00:27:38,29.2167,79.5167,75.06,68,0,4.32,clear sky
671,Kamarion,GR,2021-09-27 00:27:38,36.8,25.8167,71.74,75,26,17.92,scattered clouds
672,Altar,MX,2021-09-27 00:27:39,30.7,-111.8167,88.86,27,21,18.12,few clouds
673,Gambiran,ID,2021-09-27 00:27:39,-6.7988,111.4951,78.26,75,42,5.84,scattered clouds
674,Constitucion,CL,2021-09-27 00:27:39,-35.3333,-72.4167,50.22,80,33,12.46,scattered clouds
675,Verkhnevilyuysk,RU,2021-09-27 00:27:40,63.4453,120.3167,33.13,76,100,10.25,overcast clouds
676,Roald,NO,2021-09-27 00:27:40,62.5833,6.1333,61.11,82,90,3.44,overcast clouds
677,Bulgan,MN,2021-09-27 00:27:40,48.8125,103.5347,36.97,51,67,2.35,broken clouds
678,Sao Benedito Do Rio Preto,BR,2021-09-27 00:27:40,-3.3336,-43.5283,78.8,78,81,5.5,broken clouds
679,Mikkeli,FI,2021-09-27 00:27:41,61.6886,27.2723,30.31,100,0,1.14,clear sky
680,Hanzhong,CN,2021-09-27 00:27:41,33.0728,107.0303,63.34,97,100,1.01,overcast clouds
681,Coffeyville,US,2021-09-27 00:27:41,37.0373,-95.6164,87.85,27,1,11.5,clear sky
682,Mirnyy,RU,2021-09-27 00:27:42,62.5353,113.9611,33.04,75,100,15.37,overcast clouds
683,Kifri,IQ,2021-09-27 00:27:42,34.6959,44.9661,75.97,21,0,6.69,clear sky
684,Talcahuano,CL,2021-09-27 00:25:21,-36.7167,-73.1167,51.48,62,0,16.11,clear sky
685,Novo Cruzeiro,BR,2021-09-27 00:27:43,-17.4681,-41.8753,65.01,63,44,3.83,scattered clouds
686,Beyneu,KZ,2021-09-27 00:27:43,45.3167,55.2,56.28,69,4,16.04,clear sky
687,Mokhotlong,LS,2021-09-27 00:27:43,-29.2894,29.0675,57.15,60,35,4.81,scattered clouds
688,Didwana,IN,2021-09-27 00:27:43,27.4,74.5667,78.57,80,53,7.29,broken clouds
689,Lagoa,PT,2021-09-27 00:27:44,39.05,-27.9833,66.78,66,78,20.85,broken clouds
690,Puerto Baquerizo Moreno,EC,2021-09-27 00:27:44,-0.9,-89.6,69.08,88,84,10.49,broken clouds
691,Gigmoto,PH,2021-09-27 00:27:44,13.7796,124.39,83.07,81,91,2.91,overcast clouds
692,Contai,IN,2021-09-27 00:27:45,21.7786,87.7536,78.98,89,35,6.58,scattered clouds
693,Havre,FR,2021-09-27 00:27:45,49.5833,0.3333,62.37,82,0,10.36,clear sky
694,Ghanzi,BW,2021-09-27 00:27:45,-21.5667,21.7833,69.01,21,0,8.61,clear sky
695,Port Moresby,PG,2021-09-27 00:27:46,-9.4431,147.1797,83.28,73,45,5.48,scattered clouds
696,Tabou,CI,2021-09-27 00:27:46,4.423,-7.3528,74.95,88,100,1.5,light rain
